name,lat,lng,evalu,review_cnt
ハートンホテル東品川（品川シーサイド）,35.6103544,139.7503566,4.2,7215
スーパーホテル東京・芝　高濃度人工炭酸泉　開城の湯,35.650032,139.7512678,4.4,1104
ラビスタ東京ベイ（共立リゾート）,35.6466503,139.7840088,4.6,541
東京ベイ有明ワシントンホテル,35.6326198,139.7933536,4.2,8844
アパホテル〈品川 泉岳寺駅前〉,35.638116,139.73917,4.2,1885
静鉄ホテルプレジオ東京田町,35.6427583,139.7470938,4.7,102
グランドニッコー東京 台場,35.6251435,139.7715694,4.6,10915
名鉄イン浜松町,35.6579392,139.7555794,4.5,481
三井ガーデンホテル豊洲プレミア,35.65513,139.7946277,4.6,662
スーパーホテル東京・浜松町,35.6554502,139.7547582,4.5,68
品川プリンスホテル　イーストタワー,35.6276269,139.7370227,3.8,261
ザ・プリンス　さくらタワー東京、オートグラフ　コレクション,35.6309727,139.7354282,4.6,2237
グランドプリンスホテル新高輪,35.6300117,139.7334779,4.4,5163
相鉄グランドフレッサ 東京ベイ有明（旧ホテルサンルート有明）,35.6323868,139.7895918,4.2,9582
スーパーホテル品川・新馬場　高濃度炭酸泉　七福神の湯,35.6174442,139.744219,4.4,1132
スーパーホテル品川・青物横丁　高濃度炭酸泉　銀杏の湯,35.613039,139.7450018,4.4,2372
ホテルＪＡＬシティ東京 豊洲,35.6469113,139.7867672,4.4,817
東急ステイ高輪（泉岳寺駅前）,35.6384133,139.739104,4.6,323
品川プリンスホテル,35.6279119,139.7367526,4.0,13893
ザ ロイヤルパークホテル アイコニック 東京汐留,35.6642408,139.7605355,4.5,2497
ニューオータニイン東京,35.620879,139.7292135,4.2,6374
ヴィラフォンテーヌ グランド 東京有明｜住友不動産,35.6375284,139.7915048,4.3,919
グランドプリンスホテル高輪,35.6317936,139.7347926,4.3,1980
安心お宿　woman Tokyo 銀座汐留店,35.6617176,139.756745,4.4,655
ザ・プリンス パークタワー東京,35.655449,139.7470914,4.3,2627
京急ＥＸイン品川・新馬場駅北口,35.617893,139.7412744,4.2,3190
ダイワロイネットホテル新橋,35.6684793,139.7571404,4.4,386
品川プリンスホテル　Ｎタワー,35.6285324,139.7363281,4.4,581
変なホテル東京　浜松町,35.6573407,139.7564528,4.2,616
ヴィラフォンテーヌ グランド 東京田町｜住友不動産,35.64291435,139.7449042,4.7,1618
ホテルトラスティ東京ベイサイド,35.6284276,139.7872151,4.3,4298
ホテルリラサーレ東京,35.6535356,139.7547838,4.7,95
都シティ　東京高輪,35.6335492,139.7377664,4.4,479
ヒルトン東京お台場,35.6264108,139.7706744,4.3,899
第一ホテル東京,35.6686829,139.7572675,4.6,572
ホテル　グレイスリー田町,35.6436568,139.7509528,4.2,3257
ロワジールホテル品川シーサイド,35.6092469,139.7488374,4.2,435
京王プレッソイン浜松町,35.6592131,139.7528344,4.2,874
三交インＧｒａｎｄｅ東京浜松町,35.6542019,139.7546333,4.5,809
京急ＥＸイン浜松町・大門駅前,35.6574124,139.7541443,4.4,278
スーパーホテル新橋・烏森口,35.6625356,139.7561862,4.2,1419
ｉｎｕｍｏ　芝公園　ｂｙ　Ｖｉｌｌａ　Ｆｏｎｔａｉｎｅ,35.6587076,139.752272,4.4,30
東京豊洲 万葉倶楽部,35.6461872,139.7831588,4.3,122
ヴィラフォンテーヌ東京浜松町｜住友不動産,35.6520492,139.7549823,4.6,657
東京プリンスホテル,35.658962,139.7481391,4.2,44
相鉄フレッサイン東京田町,35.6427198,139.7478528,4.1,1137
ＦＩＲＳＴ　ＣＡＢＩＮ（ファーストキャビン）愛宕山,35.6642916,139.7520633,4.2,53
京急ＥＸホテル高輪（2026年2月リニューアルオープン）,35.6290459,139.7353698,4.3,1307
スマイルホテル品川泉岳寺駅前,35.640672,139.7413735,4.2,104
アパホテル〈新橋 御成門〉,35.6613948,139.755282,4.1,852
ローズステイ東京芝公園,35.6517175,139.7497798,4.1,832
東横ＩＮＮ品川港南口天王洲アイル,35.621858,139.7487458,4.1,3159
リッチモンドホテル東京芝,35.6568199,139.752268,4.2,2258
チェックイン新橋,35.6648291,139.7562635,4.1,1664
豪華カプセルホテル安心お宿　新橋駅前店,35.6650249,139.758073,3.9,1145
アパホテル〈三田駅前〉,35.6484342,139.7501349,4.0,1003
東急ステイ新橋,35.6635189,139.7570221,4.2,1083
ホテルマイステイズプレミア浜松町,35.659201,139.756371,3.9,10
アパホテル〈新橋 虎ノ門〉,35.666862,139.7532249,4.0,42
ベイサイドホテル　アジュール竹芝・浜松町,35.657111,139.7556247,4.0,94
ホテル新橋三番館,35.665992,139.7555499,4.1,521
レンブラントキャビン＆スパ新橋,35.6664936,139.7558742,4.0,138
東京グランドホテル,35.6528995,139.7511944,4.1,1471
虎ノ門ホリックホテル（2026年4月24日オープン）,35.6670515,139.7516772,4.2,5
ホテルグランマーチ東京芝浦,35.6449425,139.75217,4.4,109
ＢＡＹ　ＨＯＴＥＬ東京浜松町,35.6580878,139.7568248,4.2,7
ホテルタビノス浜松町,35.654661,139.7621332,3.9,479
新橋アーバンホテル,35.667287,139.7552382,4.1,124
相鉄フレッサイン　大門駅前（2022年1月26日新規オープン）,35.6555811,139.7537757,4.1,108
ファーイーストビレッジホテル東京有明,35.6403239,139.7917997,3.8,607
相鉄フレッサイン浜松町大門,35.6595979,139.7543821,3.9,901
CANDEO HOTELS（カンデオホテルズ）東京新橋,35.6658592,139.755218,4.0,306
ホテルリブマックス三田駅前,35.6484734,139.7503445,4.1,16
ANAホリデイ・イン東京ベイ by IHG,35.624343,139.7512527,4.0,5
ダブルツリーbyヒルトン東京有明,35.6344861,139.7923764,4.0,12
ヴィラフォンテーヌ　東京日比谷｜住友不動産,35.6661786,139.7534274,4.1,10
ダイワロイネットホテル東京大崎,35.6181067,139.7266833,4.1,2242
ホテルマイステイズ浜松町,35.6581876,139.7551683,4.0,7
三井ガーデンホテル汐留イタリア街,35.6602814,139.7569564,3.9,4414
相鉄フレッサイン新橋日比谷口,35.6682636,139.7576635,3.9,895
品川宿ゲストハウス＆ツアーズ,35.6217794,139.7403581,4.0,68
フレックステイイン品川,35.6221637,139.7402043,3.8,32
the b 新橋（ザビーしんばし）,35.6675813,139.7535791,3.9,155
ナインアワーズ浜松町,35.6574235,139.7555883,3.9,62
チサンホテル浜松町,35.649863,139.755531,3.6,1649
アネックスチェックイン新橋,35.6660589,139.7556267,3.8,312
ＴＨＥ　ＨＯＴＥＬ　ＳＨＩＮＢＡＳＨＩ （ザ　ホテル新橋）,35.664036,139.757308,3.7,199
品川東武ホテル,35.6292229,139.7330475,3.6,653
ホテルリブマックス豊洲駅前,35.6528898,139.796817,3.6,218
くれたけインプレミアム浜松町,35.650879,139.7553047,3.5,18
Ｈｏｔｅｌ　ｏｗｌ　Ｔｏｋｙｏ　Ｓｈｉｎｂａｓｈｉ,35.665304,139.755994,3.5,351
ナインアワーズ品川駅 for men,35.6300683,139.7413325,3.6,29
わさび三田ホテル,35.6445379,139.7439072,3.5,36
東横ＩＮＮ品川駅高輪口,35.6264987,139.7374409,3.6,415
ホテルリブマックス汐留,35.6623298,139.7577355,3.2,6
ホテルリブマックスBUDGET新橋,35.6611936,139.7543784,3.1,597
アパホテル＆リゾート〈六本木駅東〉,35.661654,139.7375242,4.5,319
アパホテル〈六本木SIX〉,35.6662355,139.7373987,4.1,164
高濃度炭酸泉　茜草の湯　スーパーホテルPremier赤坂,35.6746188,139.7364068,4.6,696
アパホテルプライド〈赤坂国会議事堂前〉,35.6745985,139.7413511,4.3,89
ＪＲ西日本グループ　ヴィアインプライム赤坂＜茜音の湯＞,35.6726246,139.7390154,4.6,184
京王プレッソイン赤坂(2026年3月リニューアル),35.671319,139.736801,4.4,713
レム六本木,35.6637447,139.731269,4.4,57
ホテルニューオータニ　エグゼクティブハウス 禅,35.6814232,139.7340325,4.6,89
ホテルニューオータニ,35.68092012,139.7340568,4.3,2113
アパホテル〈永田町半蔵門駅前〉,35.6828953,139.7399813,4.1,664
ホテル　アジア会館,35.6704684,139.728046,4.4,1251
ホテル ルポール麹町（地方職員共済組合麹町会館）,35.681779,139.738677,4.4,1405
ホテルヒラリーズ赤坂,35.6736433,139.7378892,4.2,598
OMO3東京赤坂 by 星野リゾート,35.675022,139.7359607,4.3,61
オリンピックイン麻布,35.6519073,139.7368924,4.3,2122
ホテルモントレ赤坂,35.6755584,139.7327237,4.3,1857
アパホテル〈西麻布〉,35.6571216,139.7236242,4.1,171
東急ステイ青山プレミア,35.6688037,139.7169495,4.2,24
相鉄フレッサイン東京赤坂,35.6711793,139.7355285,4.1,571
都市センターホテル（リーガロイヤルホテルグループ）,35.68111,139.7386081,4.3,18
センチュリオンホテルグランド赤坂,35.675844,139.7361827,4.4,378
ホテルマイステイズプレミア赤坂,35.6702921,139.7386104,4.3,10
アパホテル〈赤坂見附〉,35.6759226,139.7361235,3.6,43
ファーストキャビン赤坂,35.6730268,139.7374354,4.3,459
変なホテル東京　赤坂,35.6721198,139.7391471,3.9,45
マロウドイン赤坂,35.669115,139.7326925,4.0,1144
【赤坂陽光ホテル】,35.669444,139.73308,4.0,1045
赤坂アーバンホテルアネックス(溜池山王駅前),35.670089,139.741644,4.4,100
センチュリオンホテルレジデンシャル赤坂,35.6737801,139.7378414,4.4,521
グランド ハイアット 東京,35.6600777,139.7283208,4.0,30
ホテルＳＵＩ赤坂　ｂｙ　ＡＢＥＳＴ,35.6703844,139.7378975,3.9,291
コンフォートイン東京六本木,35.6637618,139.7337569,4.2,173
アパホテル〈六本木駅前〉,35.6623173,139.7323214,3.8,27
the b 赤坂見附（ザビーあかさかみつけ）,35.6714763,139.7330338,4.0,1619
赤坂グランベルホテル,35.6755898,139.7370814,4.2,1261
ザ・センチュリオン　クラシック赤坂,35.6743564,139.7374927,4.2,150
ナインアワーズ赤坂,35.673917,139.7351193,4.2,79
ホテルグランドアーク半蔵門(運営：帝国ホテルグループ),35.6829909,139.7434002,4.0,994
the b 赤坂（ザビーあかさか）,35.6713895,139.732897,4.0,1891
フレックステイイン白金,35.6446994,139.7245937,4.0,10
CANDEO HOTELS（カンデオホテルズ）東京六本木,35.6620422,139.7325975,3.8,250
ANAインターコンチネンタルホテル東京 by IHG,35.6682896,139.7408307,3.5,1080
スゴイサウナ＆ステイ麻布十番駅前,35.6566612,139.7384418,4.0,11
サウナ＆キャビンテルマー湯西麻布,35.6583941,139.723053,3.8,26
相鉄フレッサイン東京六本木,35.6635363,139.7335601,3.5,219
ネストホテル東京半蔵門,35.6833128,139.7419786,3.4,6
赤坂の里Ｐｒｅｍｉｕｍ,35.6710403,139.7345469,2.6,5
アパホテル＆リゾート〈東京ベイ潮見〉,35.6578741,139.8189755,4.3,8858
ＪＲ東日本ホテルメッツ プレミア 東京ベイ新木場,35.6450888,139.8274907,4.7,690
ホテル イースト21東京　～オークラホテルズ＆リゾーツ～,35.6744837,139.8147033,4.5,2607
スーパーホテル東京・ＪＲ新小岩,35.7155215,139.8585953,4.3,846
スーパーホテル東京・亀戸,35.6990581,139.8227799,4.5,952
ザ・ワンファイブ東京亀戸,35.6992631,139.8251763,4.3,75
アパホテル〈東京西葛西駅前〉,35.6652115,139.8601093,4.6,37
京成リッチモンドホテル東京門前仲町,35.6728249,139.796505,4.3,267
東京イーストサイドホテル櫂会,35.6588637,139.8179957,4.4,417
カプセルホテル　レインボー総武線・葛飾区・新小岩店,35.7159905,139.861126,3.9,347
コンフォートホテル東京清澄白河,35.6822592,139.7996776,4.2,2303
アパホテル〈東京大島〉2025年8月客室設備リニューアル,35.688981,139.8213489,4.3,1519
東京ベイ潮見プリンスホテル,35.6598924,139.8171055,4.6,377
ホテル ルミエール西葛西,35.6624019,139.861326,4.5,3087
ホテルシーサイド江戸川,35.6428461,139.8594505,4.6,186
ホテルルートインＧｒａｎｄ東京東陽町,35.6677906,139.8168837,4.3,321
スマイルホテル東京新小岩,35.7181192,139.8584535,3.9,91
ホテル ルミエール葛西,35.6611987,139.8727023,4.6,2112
サイプレスイン東京,35.7172428,139.8570422,4.5,271
アパホテル＜ＴＫＰ東京西葛西＞,35.6641713,139.8601889,4.1,252
hotel MONday 東京西葛西,35.6644635,139.8581942,4.5,213
Ｌ　ｓｔａｙ＆ｇｒｏｗ　南砂町,35.6688596,139.835235,4.4,185
ワシントンＲ＆Ｂホテル東京東陽町,35.6694512,139.820222,4.1,818
hotel MONday Premium 豊洲,35.6490432,139.8011447,4.3,408
くれたけイン東京船堀,35.6846998,139.8631049,3.9,349
東横ＩＮＮ東西線木場駅,35.6705357,139.8062939,4.3,34
【変なホテル東京西葛西】シャトルバスで舞浜方面へ楽々アクセス,35.6366611,139.8814325,4.0,399
レンブラントスタイル東京西葛西グランデ,35.6624494,139.860366,4.1,230
瑞江第一ホテル,35.6934447,139.8969241,3.9,1031
相鉄フレッサイン東京東陽町駅前,35.670063,139.8176116,3.9,693
ホテルマイステイズ亀戸,35.6943512,139.828753,3.8,36
LYURO 東京清澄 by THE SHARE HOTELS,35.6812172,139.7920658,4.5,159
ホテルマイステイズ清澄白河,35.684418,139.79594,4.4,9
スマイルホテル東京綾瀬駅前,35.7612199,139.8244453,3.6,600
東横ＩＮＮ門前仲町永代橋,35.6751514,139.7911889,4.0,167
ホテルリブマックス東京潮見駅前,35.6583459,139.8183035,3.6,519
東横ＩＮＮ東西線西葛西,35.6646409,139.8619428,4.3,489
GRAND HOSTEL LDK 東京西葛西,35.6637649,139.8577262,4.3,18
スマイルホテル東京西葛西,35.6651854,139.8580462,3.2,2570
デイナイスホテル東京,35.6691875,139.8018476,3.6,595
東急ステイ門前仲町,35.6711181,139.7988408,3.6,811
スカイハートホテル京成小岩駅前,35.742846,139.8833909,3.5,22
ＢｕｍＢ東京スポーツ文化館,35.6490612,139.8300149,4.2,400
サウナ＆カプセルホテルニュー小岩３１０,35.7334228,139.879701,3.8,217
ビジネスホテル　レガート,35.6867823,139.8031245,3.6,5
オークホテル江戸,35.6879154,139.7989261,3.7,44
ホテル イルフィオーレ葛西 ANNEX,35.661311,139.8732233,3.5,40
ファミリーロッジ旅籠屋・東京新木場店,35.646195,139.836254,4.0,125
東京有明ＢＡＹ　ＨＯＴＥＬ,35.6393151,139.8051671,3.5,200
ホテルイルフィオーレ葛西,35.6628859,139.8746707,3.5,287
ホテルリブマックス葛西駅前,35.6607958,139.8732306,3.4,333
ＡＫ　ＳＴＡＲ　ＨＯＴＥＬ　ＴＯＫＹＯ,35.6915433,139.8248675,3.9,7
ホテルアカイ,35.7448562,139.8549769,3.7,154
サウナ　カプセルホテルコア２１,35.6846927,139.8635457,3.5,62
ホテルリブマックスBUDGET東京木場,35.6683096,139.8117716,2.6,367
アーバンホテル森下,35.687856,139.8031053,3.2,133
ホテル　サン・モリシタ,35.687813,139.801375,3.6,13
ＫＯＫＯ　ＨＯＴＥＬ　東京西葛西,35.6632778,139.8603129,2.9,8
レジデンシャルホテルベヴェル東京,35.7433891,139.8336792,2.3,10
スーパーホテルPremier東京駅八重洲中央口　高濃度炭酸泉,35.6792894,139.7698372,4.5,4692
京王プレッソイン大手町,35.6879249,139.77012,4.0,3314
亀島川温泉　新川の湯　ドーミーイン東京八丁堀,35.6744295,139.7807357,4.5,96
スーパーホテル東京・日本橋三越前,35.6875984,139.7788111,4.3,1369
ロイヤルパークホテル,35.6823199,139.7866324,4.6,2514
スーパーホテルPremier秋葉原　天然温泉　奥湯河原の湯,35.6966324,139.7744886,4.4,739
東京ステーションホテル,35.6809928,139.7658873,4.8,895
明神の湯　ドーミーインＰＲＥＭＩＵＭ神田,35.6955236,139.7706381,4.5,54
ホテルメトロポリタン丸の内,35.6838969,139.7685697,4.6,2630
帝国ホテル 東京,35.672454,139.7579015,4.8,1832
スーパーホテルPremier銀座　天然温泉　奥湯河原の湯,35.670749,139.7684456,4.5,72
伝馬の湯　ドーミーインＰＲＥＭＩＵＭ東京小伝馬町,35.6903542,139.7781281,4.5,81
天然温泉七宝の湯ドーミーインＰＲＥＭＩＵＭ銀座,35.6676219,139.7657268,4.5,145
京急ＥＸイン東銀座,35.6672711,139.770414,4.2,1714
Ｌ　ｓｔａｙ＆ｇｒｏｗ晴海,35.6549256,139.7797659,4.4,1905
三井ガーデンホテル京橋,35.6784447,139.7708061,4.7,18
アパホテル〈人形町駅北〉,35.6882302,139.781623,4.3,1219
ホテルリソル秋葉原,35.6967217,139.7739352,4.4,52
ホテルかずさや,35.6895989,139.7743052,4.5,78
丸ノ内ホテル,35.683357,139.766589,4.6,519
プレミアホテル-CABIN PRESIDENT-東京,35.6552852,139.7810392,4.7,227
アパホテル〈日本橋馬喰横山駅前〉,35.6925034,139.7832008,4.3,252
レム日比谷,35.6726062,139.7596706,4.3,71
ザ・ゲートホテル東京 by HULIC（THE GATE HOTEL 東京 by HULIC),35.6729489,139.7615741,4.5,203
アパホテル〈八丁堀駅南〉,35.6731403,139.7754809,4.2,1161
ホテル八重の翠東京,35.6771812,139.7762154,4.3,343
東京海員会館,35.6551045,139.7793748,4.1,1631
ＪＲ西日本グループ　ヴィアイン東銀座,35.6671334,139.7705112,4.4,2686
アルモントイン東京日本橋,35.6818402,139.7821869,4.1,68
エスペリアイン日本橋箱崎,35.6832817,139.7902205,4.2,53
京王プレッソイン東京駅八重洲,35.678869,139.7699532,4.1,600
三井ガーデンホテル銀座五丁目,35.6688823,139.7667539,4.7,370
アパホテル〈八丁堀駅前〉,35.6757694,139.7781502,4.3,209
アパホテル〈銀座 新富町駅前〉【2026年3月リニューアル】,35.6716294,139.7737444,4.2,647
ソラリア西鉄ホテル銀座,35.6707725,139.7672454,4.2,990
アパホテル〈東日本橋駅前〉,35.6926292,139.7846788,4.1,77
京急ＥＸイン東京・日本橋,35.6786894,139.7780308,4.2,646
アパホテル〈日本橋浜町駅南〉,35.6863839,139.791599,4.1,1387
ホテルリソルステイ秋葉原,35.6964382,139.7732619,4.5,32
東横ＩＮＮ東京駅新大橋前,35.6872668,139.7904398,4.2,734
ホテルマリナーズコート東京,35.6529293,139.7791115,4.4,264
アパホテル〈日本橋 馬喰町駅前〉,35.6931177,139.7824977,4.3,254
三井ガーデンホテル銀座プレミア,35.6671058,139.7632279,4.4,4362
アパホテル〈神田駅東〉,35.6920767,139.7751531,4.1,1058
西鉄イン日本橋（人形町）,35.6853467,139.7796563,3.9,3280
ＨＡＭＡＣＨＯ　ＨＯＴＥＬ　ＴＯＫＹＯ（浜町ホテル東京）,35.687647,139.7888534,4.5,237
銀座国際ホテル,35.6680018,139.7604198,4.3,2075
アパホテル〈秋葉原駅東〉,35.6974214,139.7769896,4.3,35
変なホテル東京銀座,35.6700875,139.7739054,4.2,306
ＫＫＲホテル東京（国家公務員共済組合連合会東京共済会館）,35.69070026,139.7606311,4.5,964
京王プレッソイン神田,35.6947372,139.7690977,4.0,2059
女性だけが泊まれるカプセルホテル　秋葉原ＢＡＹ　ＨＯＴＥＬ,35.6999606,139.7750218,4.1,631
レム東京京橋,35.676866,139.7703765,4.3,39
スマイルホテル東京日本橋,35.6790642,139.7798485,4.0,2506
アパホテル〈小伝馬町駅前〉,35.6911138,139.7805673,4.1,1067
ホテル京阪 築地銀座 グランデ,35.6684358,139.7740277,4.4,313
銀座キャピタルホテル　茜　（はとバス直営）,35.6694928,139.7745486,3.8,3651
アパホテル〈秋葉原駅前〉【2025年3月客室設備リニューアル】,35.6982627,139.7764786,4.2,540
コンフォートホテルERA東京東神田,35.694516,139.7796981,4.7,467
ＫＯＫＯ　ＨＯＴＥＬ　Ｐｒｅｍｉｅｒ　日本橋浜町,35.6872105,139.7873727,4.4,166
ザ・スクエアホテル銀座,35.6722578,139.7691355,4.5,139
トーセイホテルココネ神田,35.6895452,139.7691111,4.1,38
ホテルモントレ ラ・スールギンザ,35.6738746,139.7693678,4.2,1940
秋葉原ワシントンホテル,35.697269,139.773744,4.1,2137
アパホテル〈茅場町八丁堀駅前〉,35.6775769,139.7782608,4.1,118
アパホテル〈築地駅南〉,35.6660074,139.7750924,4.1,949
トーセイホテル ココネ築地銀座プレミア,35.6639906,139.7716542,4.3,89
東急ステイ築地（旧東急ステイ東銀座）,35.6697003,139.7671399,4.5,794
アパホテル〈人形町駅東〉,35.6881189,139.7841259,4.2,163
京王プレッソイン日本橋茅場町,35.6806475,139.7803482,3.9,2485
センターホテル東京,35.67931243,139.7763289,3.8,65
銀座クレストン（旧新阪急ホテル築地）（HMIホテルグループ）,35.6664583,139.778424,4.4,1451
アパホテル〈神田駅前〉,35.693765,139.7722966,4.1,269
アパホテル〈八丁堀 新富町〉,35.6717254,139.7752685,4.2,214
ホテルインターゲート東京京橋,35.6754927,139.7708075,4.3,568
ダイワロイネットホテル東京京橋 PREMIER,35.6773556,139.7709543,4.0,28
相鉄フレッサイン銀座七丁目,35.6681821,139.7632573,4.3,483
住庄ほてる,35.6856568,139.7792859,4.1,209
ホテルモントレ銀座,35.672809,139.7689219,4.4,1557
八重洲ターミナルホテル,35.6815715,139.7711384,4.1,95
ＪＲ西日本グループ 　ヴィアイン秋葉原,35.6964571,139.7723026,4.1,3998
アパホテル〈日本橋 馬喰町駅北〉,35.6937444,139.7812504,4.1,258
レムプラス銀座,35.6674157,139.7624475,4.4,8
ワシントンR&Bホテル東日本橋,35.6939241,139.7854697,3.8,1882
ザ　ロイヤルパークホテル　銀座６丁目（24年5月30日開業）,35.6680386,139.7655746,4.1,21
ホテル モンテ エルマーナ東京（ホテルモントレグループ）,35.6802025,139.7709235,4.3,111
ヴィラフォンテーヌ東京日本橋三越前｜住友不動産,35.6811836,139.7741538,4.1,1097
レム秋葉原,35.697758,139.7736886,4.2,29
ＫＯＫＯ　ＨＯＴＥＬ　築地　銀座,35.664786,139.7732295,4.4,77
コンフォートホテル東京東日本橋,35.6940913,139.783047,4.0,4036
東横ＩＮＮ日本橋人形町,35.683487,139.7812512,4.3,156
銀座ベルビューホテル,35.6711578,139.7612447,4.1,1092
ホテルＳＵＩ神田　ｂｙ　ＡＢＥＳＴ,35.6907751,139.7733003,4.0,661
Ｊホテル東京ジオ,35.6865705,139.7704114,4.1,329
グランドセントラルホテル,35.6924694,139.7682327,3.8,43
アパホテル〈銀座 新富町駅前北〉,35.6732083,139.7744211,4.1,177
相鉄フレッサイン神田大手町,35.6905894,139.7684302,4.0,208
パールホテル茅場町,35.6789797,139.7829096,3.7,2025
ホテル日本橋サイボー,35.6855631,139.7802826,4.4,1619
ベルケンホテル・神田,35.6947934,139.7678636,4.3,240
ダイワロイネットホテル銀座 PREMIER 2026年4月リニューアル,35.6733485,139.7691715,3.9,719
イビススタイルズ東京銀座East,35.67363,139.7735417,4.4,20
ホテルビスタ東京［築地］,35.6667514,139.7683874,4.3,7
ホテルサンルート銀座,35.6735533,139.7698028,4.0,562
銀座キャピタルホテル　萌木　（はとバス直営）,35.6691969,139.7742556,4.1,281
アパホテル〈銀座京橋南〉（旧：アパホテル〈銀座 宝町〉）,35.6742758,139.7716887,3.9,337
ヴィラフォンテーヌ東京日本橋箱崎｜住友不動産,35.6804303,139.786038,4.2,715
コンフォートホテル東京神田,35.6935692,139.7743707,4.1,2133
スマイルホテル日本橋三越前,35.6862297,139.7760688,3.8,46
相鉄フレッサイン銀座三丁目,35.6719028,139.7677259,4.2,99
ホテルマイステイズ神田,35.6914731,139.7752356,4.1,17
ホテル庵築地,35.6677009,139.7729559,4.0,24
オリンピックイン神田,35.6934,139.7740312,3.9,2634
ＢＡＮ ＨＯＴＥＬ 築地銀座,35.665856,139.7715664,4.2,577
ＪＲ西日本グループ　ヴィアインプライム日本橋人形町,35.685108,139.7801177,4.3,389
ホテルサードニクス東京,35.6766512,139.7786902,4.0,3944
Ｔａｂｉｓｔ　銀座,35.6661849,139.7660823,3.9,34
ナインアワーズウーマン神田,35.6931434,139.7719084,3.9,304
ホテル銀座ダイエー,35.6709348,139.7693318,4.0,376
東横ＩＮＮ日本橋三越前A4,35.687052,139.7785604,4.2,86
ヴィラフォンテーヌ東京大手町｜住友不動産,35.6905519,139.7669058,3.8,702
相鉄フレッサイン東京神田,35.6916536,139.7740572,3.7,233
ホテルリブマックス東銀座,35.6685193,139.7713253,3.7,507
東京ビュック,35.6588402,139.7785187,3.9,3020
東横ＩＮＮ東京大手町,35.6903505,139.7668911,4.2,13
ネストホテル東京八重洲,35.6791096,139.7758451,3.6,12
ホテル堀留ヴィラ,35.6888902,139.7798296,3.6,2249
ホテルリブマックス茅場町,35.6777723,139.7785298,3.6,7
Minn 日本橋水天宮前,35.6893438,139.7836759,3.8,5
ヴィラフォンテーヌ東京茅場町｜住友不動産,35.6779795,139.7778646,3.4,1795
ＥＬＥｈｏｔｅｌＧｉｎｚａＥａｓｔ,35.6723087,139.7751121,3.5,67
ホテル奉仕会館,35.692625,139.7834722,3.8,470
ホテルリブマックス東京馬喰町,35.693262,139.781827,3.4,279
ホテルリブマックス東京神田駅前,35.6914832,139.7733034,3.2,177
相鉄フレッサイン日本橋人形町,35.6833539,139.782382,3.2,310
ナインアワーズ人形町,35.6867291,139.7812417,3.2,41
ホテルリブマックス東京新富町,35.6722972,139.7735332,3.0,238
Tokyo Guesthouse HIVE,35.692442,139.7815367,3.0,10
５４ＪＯＵＲＮＥＹ東京大手町ホステル,35.6898547,139.7664019,1.7,15
お茶の水　ホテルジュラク,35.698287,139.7676969,4.4,4272
ホテルメトロポリタンエドモント,35.7008059,139.7490517,4.6,4406
リッチモンドホテル東京水道橋,35.7061506,139.7545447,4.5,894
東京ドームホテル,35.7036666,139.7533928,4.4,231
ホテル椿山荘東京,35.7117779,139.7257143,4.8,1065
春日の湯　ドーミーイン後楽園,35.7102235,139.7535211,4.5,171
京王プレッソイン東京九段下,35.6968985,139.7518957,4.1,1692
ＪＲ東日本ホテルメッツ プレミア 秋葉原,35.6981366,139.7726442,4.5,42
アパホテル〈神田神保町駅東〉,35.6946228,139.7622114,4.2,587
ホテルモントレ半蔵門,35.686602,139.74212,4.2,3158
アパホテル〈御茶ノ水駅北〉,35.7031665,139.7672451,4.3,477
ダイヤモンドホテル,35.6853805,139.7424901,3.9,3681
アパホテル〈飯田橋駅前〉,35.7010193,139.7478194,4.2,43
すえひろの湯　ドーミーイン秋葉原,35.6996473,139.7713703,4.4,505
お茶の水イン〈全館禁煙〉,35.7015279,139.7662808,4.2,2090
アパホテル〈東京九段下〉,35.6982139,139.7494962,4.2,566
アパホテル〈水道橋駅前〉,35.7023126,139.7530095,4.4,135
ホテル東京ガーデンパレス,35.702759,139.7648401,4.5,749
ｓｅｑｕｅｎｃｅ ＳＵＩＤＯＢＡＳＨＩ,35.7023637,139.7525656,4.7,244
ホテルグランドヒル市ヶ谷,35.6917326,139.7331081,4.3,1718
東急ステイ水道橋,35.70088,139.7565992,4.6,2111
ホテルマイステイズ飯田橋,35.7054316,139.7423232,4.3,47
ファーストキャビン市ヶ谷,35.6922306,139.7346298,4.2,343
ホテルマイステイズ御茶ノ水コンファレンスセンター,35.697375,139.7684414,4.3,2353
後楽ガーデンホテル,35.7040665,139.7481857,4.2,22
ホテル京阪東京四谷,35.6868205,139.7274361,4.4,180
アパホテル〈秋葉原末広町駅前〉(電気街),35.6984707,139.7727871,4.5,48
ヴィラフォンテーヌ東京九段下｜住友不動産,35.6977733,139.7545531,4.5,1288
カプセルランド湯島,35.707666,139.7701404,4.0,687
お茶の水ホテル　昇龍館,35.6956325,139.762859,4.8,686
お茶の水　ホテルジュラク,35.698287,139.7676969,4.4,4272
ホテルメトロポリタンエドモント,35.7008059,139.7490517,4.6,4406
リッチモンドホテル東京水道橋,35.7061506,139.7545447,4.5,894
東京ドームホテル,35.7036666,139.7533928,4.4,231
ホテル椿山荘東京,35.7117779,139.7257143,4.8,1065
春日の湯　ドーミーイン後楽園,35.7102235,139.7535211,4.5,171
京王プレッソイン東京九段下,35.6968985,139.7518957,4.1,1692
ＪＲ東日本ホテルメッツ プレミア 秋葉原,35.6981366,139.7726442,4.5,42
アパホテル〈神田神保町駅東〉,35.6946228,139.7622114,4.2,587
ホテルモントレ半蔵門,35.686602,139.74212,4.2,3158
アパホテル〈御茶ノ水駅北〉,35.7031665,139.7672451,4.3,477
ダイヤモンドホテル,35.6853805,139.7424901,3.9,3681
アパホテル〈飯田橋駅前〉,35.7010193,139.7478194,4.2,43
すえひろの湯　ドーミーイン秋葉原,35.6996473,139.7713703,4.4,505
お茶の水イン〈全館禁煙〉,35.7015279,139.7662808,4.2,2090
アパホテル〈東京九段下〉,35.6982139,139.7494962,4.2,566
アパホテル〈水道橋駅前〉,35.7023126,139.7530095,4.4,135
ホテル東京ガーデンパレス,35.702759,139.7648401,4.5,749
ｓｅｑｕｅｎｃｅ ＳＵＩＤＯＢＡＳＨＩ,35.7023637,139.7525656,4.7,244
ホテルグランドヒル市ヶ谷,35.6917326,139.7331081,4.3,1718
東急ステイ水道橋,35.70088,139.7565992,4.6,2111
ホテルマイステイズ飯田橋,35.7054316,139.7423232,4.3,47
ファーストキャビン市ヶ谷,35.6922306,139.7346298,4.2,343
ホテルマイステイズ御茶ノ水コンファレンスセンター,35.697375,139.7684414,4.3,2353
後楽ガーデンホテル,35.70406735,139.7481894,4.2,22
ホテル京阪東京四谷,35.6868205,139.7274361,4.4,180
アパホテル〈秋葉原末広町駅前〉(電気街),35.6984707,139.7727871,4.5,48
ヴィラフォンテーヌ東京九段下｜住友不動産,35.6977733,139.7545531,4.5,1288
カプセルランド湯島,35.707666,139.7701404,4.0,687
お茶の水ホテル　昇龍館,35.6956325,139.762859,4.8,686
ホテルサトー東京,35.7033766,139.7554126,3.4,280
ホテル江戸屋,35.7049806,139.7678437,3.9,108
サクラホテル神保町,35.694959,139.756455,3.5,110
レジデンスホテルウィル新宿,35.6888689,139.715409,3.4,117
ロードス神楽坂ホテル,35.6988883,139.7333917,3.1,29
ホテルリブマックスBUDGET後楽園,35.7107589,139.7462639,2.1,985
アパホテル＆リゾート〈両国駅前タワー〉,35.6974261,139.7943487,4.2,460
アパホテル〈上野駅前〉,35.7102774,139.7770512,4.3,98
Ｓｍａｒｔ　Ｓｔａｙ　ＳＨＩＺＵＫＵ　上野駅前,35.7101484,139.7731753,4.3,903
アルモントホテル日暮里,35.7284492,139.7739099,4.8,19
リッチモンドホテルプレミア東京スコーレ,35.7102341,139.8137579,4.7,1405
浅草ビューホテルアネックス六区,35.7151733,139.7932755,4.6,174
浅草ビューホテル,35.7154468,139.7918097,4.6,4154
アパホテル〈浅草 蔵前北〉,35.7061717,139.7945894,4.6,108
アパホテル〈浅草 蔵前〉【2025年3月客室設備リニューアル】,35.7056851,139.7943467,4.2,159
京成リッチモンドホテル東京押上,35.7109288,139.8141536,4.6,373
ザ・ゲートホテル両国 by HULIC（THE GATE HOTEL両国 by HULIC）,35.6977883,139.7923471,4.7,286
スーパーホテル秋葉原・末広町　高濃度炭酸泉　藍染の湯,35.7034144,139.7732689,4.3,898
ザ・ゲートホテル雷門 by HULIC（THE GATE HOTEL 雷門 by HULIC),35.7108653,139.7953066,4.4,1265
ホテルグレイスリー浅草,35.7096226,139.795442,5.0,279
ホテルアクセラ,35.727684,139.799857,4.2,621
天然温泉 凌天の湯 御宿野乃浅草別邸（ドーミーインチェーン）,35.7149164,139.7947242,4.6,156
ホテルココ・グラン北千住,35.751346,139.8026966,4.5,1955
アパホテル〈浅草橋駅北〉,35.7001491,139.7877261,4.3,453
アパホテル〈上野 稲荷町駅北〉,35.7134567,139.7826815,4.4,182
アーバイン東京・上野 北千住,35.7522367,139.8045413,4.2,461
ロッテシティホテル錦糸町,35.6974849,139.8154482,4.4,2447
リッチモンドホテル浅草,35.7141245,139.7936921,4.3,1071
京成リッチモンドホテル東京錦糸町,35.6936367,139.8149441,4.3,441
リッチモンドホテルプレミア浅草,35.7141245,139.7936921,4.4,1612
ホテルリソル上野,35.7132578,139.7778548,4.3,36
ＨＯＴＥＬ　Ｇｕｅｓｔ１（ホテル　ゲストワン）上野駅前,35.7105109,139.7772478,4.1,954
ベッセルイン上野入谷駅前,35.7216125,139.7860954,4.4,1740
天然温泉 凌雲の湯 御宿 野乃浅草（ドーミーインチェーン）,35.715214,139.7942107,4.3,62
ホテルルートインＧｒａｎｄ東京浅草橋,35.6994334,139.7873371,4.3,414
サウナ＆カプセルホテル北欧,35.713043,139.777746,4.0,1378
上野ファーストシティホテル,35.706624,139.770435,4.1,1134
アパホテル〈浅草 田原町駅前〉,35.710269,139.7901016,4.2,135
アパホテル〈浅草　雷門南〉,35.7096089,139.7950759,4.5,180
スーパーホテル浅草,35.7150191,139.7982147,4.1,120
アパホテル〈上野 御徒町駅前南〉,35.7047021,139.7740389,4.2,104
アパホテル〈上野駅北〉,35.715951,139.7804047,4.2,472
ホテル丸忠CLASSICO,35.7289825,139.8012104,4.1,1561
アパホテル〈綾瀬駅前〉,35.7634067,139.8262053,4.2,166
京急ＥＸイン秋葉原,35.7016866,139.7750236,4.3,416
LIVCITY錦糸町参番館,35.6930702,139.8107537,5.0,10
変なホテル東京　浅草橋,35.6970775,139.7847605,4.2,448
ワシントンR&Bホテル上野広小路,35.707054,139.7718972,4.2,1129
ホテルニューグリーン御徒町,35.7048621,139.7756888,4.0,1033
プロスタイル旅館　東京浅草,35.7144273,139.8008594,4.4,133
変なホテルプレミア東京 浅草田原町,35.7082336,139.7913134,4.2,427
NOHGA HOTEL UENO TOKYO（ノーガホテル上野東京）,35.7101686,139.7782184,4.5,176
ホテルヒカリ,35.7286568,139.7999386,4.1,1395
アパホテル〈浅草橋駅前〉,35.6980659,139.7849758,4.2,116
東武ホテルレバント東京 東京スカイツリー(R)オフィシャルホテル,35.6972128,139.810939,4.1,4822
ＨＯＴＥＬ　ＴＡＢＡＲＤ　ＴＯＫＹＯ,35.6944202,139.817644,4.7,56
ホテルサンルート浅草,35.710672,139.7920368,4.2,1707
三井ガーデンホテル上野,35.7118567,139.7781079,4.4,1556
相鉄フレッサイン東京錦糸町,35.6959044,139.8116894,4.1,561
つるや旅館,35.71020246,139.8022224,4.7,388
スーパーホテル東京・錦糸町駅前　高濃度人工炭酸泉　北斎の湯,35.6978294,139.8115087,4.4,22
東横ＩＮＮアキバ浅草橋駅東口,35.6994137,139.7879384,4.1,243
徒士の湯ドーミーイン上野・御徒町,35.7090143,139.776061,4.3,696
アパホテル〈上野駅南〉,35.709175,139.7759199,4.2,112
アパホテル〈秋葉原駅北〉,35.7016755,139.7760459,4.2,195
浅草東武ホテル,35.7113848,139.7974249,4.4,440
ベッセルイン浅草　つくばエクスプレス,35.7184065,139.7923491,4.2,185
サウナ・カプセルホテル　ニューウイング,35.6940802,139.8129434,4.3,50
ＨＯＴＥＬ ＯＷＬ Ｔｏｋｙｏ,35.7292922,139.7732762,3.9,725
第一ホテル両国,35.698206,139.7970826,4.1,4016
ホテル丸忠ＣＥＮＴＲＯ,35.7305474,139.7990214,4.0,1442
ヴィラフォンテーヌ東京上野御徒町｜住友不動産,35.7074175,139.7851256,4.5,758
CANDEO HOTELS (カンデオホテルズ)上野公園,35.7217932,139.7797444,4.0,1855
ホテル京阪浅草,35.7149526,139.7928419,4.1,2428
東京ツーリストイン,35.7240642,139.777859,4.3,342
ホテルリブマックス東京綾瀬駅前,35.7636111,139.8240337,4.3,364
OMO3浅草 by 星野リゾート,35.7138264,139.7983176,4.3,39
トーセイホテルココネ浅草蔵前,35.7051971,139.7937896,4.4,211
アパホテル＜ＴＫＰ日暮里駅前＞,35.7270364,139.7728158,3.9,378
アパホテル〈浅草駅前〉,35.7082915,139.7955253,4.1,51
ホテルファミーＩＮＮ・錦糸町,35.6959726,139.8124506,3.9,1548
両国ビューホテル,35.6954732,139.7921092,4.1,2014
浅草セントラルホテル　本館,35.7114409,139.7941835,4.2,32
スーパーホテル上野・御徒町,35.7063479,139.775799,3.9,956
アートホテル日暮里ラングウッド,35.7281102,139.7729396,4.1,399
展望大浴場  あさひ湯　ドーミーインEXPRESS浅草,35.7175232,139.796724,3.9,49
アパホテル〈浅草　蔵前駅前〉,35.7027169,139.7905816,4.3,47
アパホテル〈京成上野駅前〉,35.7113744,139.7729255,4.1,22
相鉄フレッサイン上野御徒町,35.707912,139.772478,4.4,139
ホテル　ニューウエノ,35.7127877,139.7774824,4.1,607
hotel MONday 浅草,35.7167124,139.7943867,4.5,53
パールホテル両国,35.6964127,139.7914285,3.9,1798
アパホテル〈浅草　新御徒町駅前〉,35.7076515,139.7822117,4.2,70
ＭｙＣＵＢＥ　ｂｙ　ＭＹＳＴＡＹＳ　浅草蔵前,35.703844,139.791959,4.4,443
東横ＩＮＮ三ノ輪駅,35.726805,139.7896246,4.3,10
ハセベ町屋イン,35.7439368,139.7814133,4.1,819
上野東金屋ホテル,35.7109647,139.7778825,4.4,237
ホテルサンルート“ステラ”上野,35.7135389,139.7781833,4.0,767
アパホテル〈浅草 雷門〉,35.7101301,139.7951458,4.1,221
ホテルニュー東北,35.7105069,139.7790344,4.4,14
東横ＩＮＮ浅草蔵前２,35.703439,139.791933,4.4,15
両国リバーホテル,35.695536,139.7916137,3.8,1052
スパ＆カプセルホテル　グランパーク・イン北千住,35.746554,139.802575,4.1,346
ホテルツーリストイン上野御徒町,35.7063624,139.7850764,4.1,160
上野ステーションホステルオリエンタル１,35.7098615,139.7751173,3.7,102
センチュリオンホテル上野,35.7083946,139.7717974,4.2,1614
スーパーホテルＪＲ上野入谷口,35.715392,139.7800076,4.1,39
ホテルサンターガス上野店,35.7099646,139.7773894,3.9,496
ホテルマイステイズ日暮里,35.7276303,139.7742202,4.1,1004
ニューパークホテル,35.71025,139.7774157,4.0,426
ホテルトレンド東武浅草駅北,35.7136134,139.7982271,3.9,124
ホテル　セレッソ,35.7244071,139.775641,3.8,1282
上野アーバンホテルアネックス,35.7144944,139.7794211,4.3,102
1泊1980円ホテル Ｔｏｋｙｏ,35.724384,139.7869499,4.1,399
THE KANZASHI TOKYO ASAKUSA(ザ カンザシ 東京 浅草),35.7164206,139.7952283,4.1,161
ホテルマイステイズ上野稲荷町,35.7116879,139.7852508,4.2,8
HOTEL PRELE ホテルプレール,35.7166106,139.7856076,4.2,16
ビジネスホテルサンパレス,35.7308122,139.7983482,3.9,595
Ｔａｂｉｓｔ　ＨＯＴＥＬ　ＵＥＮＯ３９,35.710041,139.7756725,4.3,7
東横ＩＮＮ上野田原町駅,35.7078192,139.7913409,4.2,128
ホテルクラウンヒルズ上野プレミア,35.7091391,139.776906,3.8,25
hotel MONday 秋葉原浅草橋,35.6996199,139.7874515,4.2,58
ホテルマイステイズ上野イースト,35.712566,139.782054,4.0,11
ＴＨＥ ＮＥＬＬ　上野　御徒町,35.7096681,139.7777392,3.8,196
桜スカイホテル,35.6937575,139.8154425,4.1,229
ホテルマイステイズ上野入谷口,35.7128182,139.7820426,4.0,12
パレスジャパン,35.7283333,139.8,4.0,294
ホテルタビノス浅草,35.7164002,139.79291,4.0,252
ベストウェスタンホテルフィーノ東京秋葉原,35.7031968,139.7755791,3.9,105
【全館禁煙】ＷＥＢホテル　東京浅草橋,35.6990555,139.7843792,3.9,652
グランカスタマ上野店,35.709407,139.775746,3.8,240
カプセルホステル鈴森屋,35.69388,139.8171891,4.2,23
センチュリオンホテル＆スパ　上野駅前,35.7098441,139.7756888,3.8,428
ホテルパークアベニュー,35.69880519,139.8181569,3.9,249
吉池ホテル,35.70601653,139.7736375,4.1,27
ホテルサードニクス上野,35.7087163,139.7760908,3.5,2351
上野ステーションホステルオリエンタル２,35.7097135,139.7754264,3.6,791
トーセイホテルココネ浅草(2021年7月1日OPEN),35.7166187,139.7982778,4.0,15
THE LIGHT INN TOKYO TONERI,35.74125998,139.7690225,4.1,61
ホテルトレンド浅草田原町,35.7079195,139.790495,3.6,174
東京ＳＡ旅館,35.7271648,139.8008097,3.7,67
ホテル　シャーウッド,35.7212019,139.7800822,3.5,1503
ホテル柳橋,35.69609056,139.7863732,3.9,108
ＨＯＴＥＬ　ＥＭＩＴ　ＵＥＮＯ（ホテル　エミット　上野）,35.7119169,139.7805844,3.6,219
ネストホテルオルト蔵前駅前,35.7029062,139.7902338,3.6,54
ビジネスホテル　福田屋,35.725885,139.801521,3.6,505
STAY＆GO入谷北,35.7222684,139.7855293,3.7,13
ホテル　ラ　フィレンツェ,35.80750596,139.8013719,3.5,537
ホテルマイステイズ浅草,35.7039206,139.7974473,3.4,15
Ｈｏｔｅｌ　Ｃｏｍｆａｃｔ,35.7180951,139.7819729,3.5,74
Hostel JAZ,35.7165331,139.782085,3.7,31
Tabist アーバンステイズ浅草,35.7083964,139.8008809,3.7,73
カンガルーホテルＳＩＤＥ＿Ｂ,35.7265205,139.7999804,4.0,18
ホテルリブマックス浅草スカイフロント,35.7086831,139.8104611,3.4,489
ELE Hotel 東上野,35.7125777,139.784355,3.5,9
plat hostel keikyu asakusa karin,35.7068042,139.7996707,3.8,18
上野ターミナルホテル,35.7102082,139.7783751,3.2,488
ホテルトレンド浅草,35.7120947,139.7930653,3.5,113
アゴーラプレイス 東京浅草,35.7089914,139.7908709,3.4,237
ホテルひかり,35.7230374,139.7966936,3.9,47
上野アーバンホテル,35.7141958,139.7792733,3.3,232
みかみ浅草橋ホテル,35.6971121,139.7852942,3.5,9
PLAYSIS EAST TOKYO,35.7098383,139.8022979,3.6,23
Tabist ホテルマーキュリー 浅草橋,35.6988256,139.7869948,3.2,1391
ホテルプラスホステル東京浅草１,35.7100296,139.7955821,3.4,13
サクラホステル浅草,35.7160224,139.7948263,3.4,6
グリッズ　東京　上野駅前　ホテル＆ホステル,35.7152809,139.7792598,3.2,26
ホテルトレンド浅草ANNEX （ホテルトレンド浅草アネックス）,35.7122155,139.7929108,3.1,65
ａｎｏ　Ｈｏｔｅｌ　ａｓａｋｕｓａ,35.7057083,139.7984121,3.0,26
プチホテル　コスモス,35.7291189,139.7720481,2.9,6
カンガルーホテル,35.726429,139.799791,3.0,50
ホテルリブマックスBUDGET日暮里,35.72547,139.764317,2.5,471
Ｔａｂｉｓｔホテルテトラ池袋,35.7277051,139.7079476,3.5,868
Tabist ホテル フロリダ 池袋,35.7331273,139.7073904,3.3,123
カプセルホテルブロックルーム,35.7781922,139.7219552,3.5,41
ホテルヒルトップ,35.7769369,139.6334064,3.5,136
ＴＯＫＩＯ’ｓ　ＨＯＴＥＬ,35.7554547,139.7382843,3.4,16
サクラホテル池袋,35.7335181,139.708808,3.2,351
ホテルニュースター池袋,35.7349145,139.7097169,3.2,753
龍馬　池袋,35.7354436,139.7136166,2.6,61
京王プレッソイン池袋,35.7278392,139.7156663,4.1,3098
ＪＲ東日本ホテルメッツ目白,35.7212518,139.7069655,4.5,788
赤羽ホリックホテル（2022年4月1日OPEN）,35.7780869,139.722215,4.3,375
KOKO HOTEL 赤羽駅前（旧 ホテルウィング東京赤羽）,35.7792114,139.7191187,4.5,190
サンシャインシティプリンスホテル,35.7295337,139.7195456,4.0,3969
ホテルＢ４Ｔ赤羽,35.776903,139.7209181,4.5,79
東横ＩＮＮ赤羽駅東口,35.780004,139.7222239,4.1,48
センチュリオンホテル池袋,35.7319811,139.7145305,4.2,871
アパホテル〈東京板橋駅前〉,35.7450088,139.7195285,4.0,3076
ホテルマイステイズ東池袋,35.7295159,139.7239775,4.3,2541
カプセル＆サウナロスコ（旧カプセルイン駒込）,35.7382025,139.7493614,4.1,475
アパホテル〈駒込駅前〉,35.7384359,139.7457435,4.0,300
ホテルブーゲンビリア板橋,35.7452179,139.7205256,4.0,60
ホテルカデンツァ東京,35.7558733,139.6210634,4.3,14
ホテルルートイン東京池袋,35.731222,139.71715,4.2,990
はとやホテル,35.7346109,139.7080276,4.7,48
東横ＩＮＮ池袋北口１,35.7343003,139.7109747,4.2,187
ｈｏｔｅｌ　Ｓｉｒｏ（２０２０年６月開業）,35.7325854,139.7073259,4.1,182
ホテルマイステイズ東十条（旧フレックステイイン東十条）,35.7625408,139.7271706,4.0,20
板橋センターホテル,35.751479,139.708149,4.1,489
KOKO HOTEL 池袋（旧 ホテルウィングセレクト池袋）,35.7326331,139.717277,4.1,112
東横ＩＮＮ赤羽駅東口一番街,35.7834007,139.7199592,4.2,178
ホテルオーエド,35.735264,139.709289,4.1,765
KOKO HOTEL 池袋 East,35.7322035,139.7186541,4.3,1632
フレックステイイン江古田,35.737093,139.670187,4.0,27
東横ＩＮＮ京浜東北線王子駅北口,35.756373,139.735645,4.2,19
ＡＳＴＡ　ＨＯＴＥＬ（アスタホテル）,35.7330279,139.7032662,4.1,80
赤羽プラザホテル,35.7776817,139.7224544,3.9,1007
池袋ロイヤルホテル本館,35.7334829,139.7095366,3.9,122
大塚タウンホテル,35.7337603,139.7268125,3.9,1421
東横ＩＮＮ山手線大塚駅北口2,35.7326675,139.727227,4.1,208
第一イン池袋（阪急阪神第一ホテルグループ）,35.7320786,139.7129168,4.0,2776
ホテルアーバン,35.7304837,139.707489,4.0,8
Tabist ホテルオーロラ 池袋,35.732363,139.7060189,3.7,253
ホテルメンテルス巣鴨,35.7327197,139.7400751,3.9,1087
東横ＩＮＮ池袋北口２,35.7340531,139.7103353,3.8,387
ロードス大塚ホテル,35.7303498,139.730752,4.0,11
Ｔａｂｉｓｔ　東京シティービューホテル,35.7360175,139.7629055,3.7,52
カプセル＆サウナ　コスモプラザ赤羽,35.7808446,139.7203486,3.8,53
フレックステイイン常盤台,35.7582105,139.6924311,3.5,7
カプセルイン大塚,35.7323424,139.72892,3.7,486
ホテルスタープラザ池袋,35.732775,139.707942,3.5,1293
スマイルホテル巣鴨,35.7345781,139.739208,3.5,803
Ｂｅｌｌｅ　Ｖｉａ　Ｔｏｋｙｏ,35.7287228,139.734048,3.8,22
東京ゲストハウス板橋宿,35.75621,139.697255,3.9,44
貴美旅館,35.7334137,139.707574,3.7,8
大塚シティホテル,35.73039,139.72984,3.6,787
フレックステイイン巣鴨,35.7338076,139.7347122,3.3,9
アパホテル＆リゾート〈西新宿五丁目駅前タワー〉,35.68975,139.6834836,4.3,374
京王プラザホテル,35.6902544,139.6942516,4.8,4754
東京ビジネスホテル,35.6936296,139.7104906,4.3,3371
リッチモンドホテル東京武蔵野,35.7071467,139.5613879,4.4,2485
カプセルホテル新宿５１０,35.6973294,139.7024256,4.2,2156
高濃度炭酸泉　演舞の湯　スーパーホテル新宿歌舞伎町,35.6959885,139.7014923,4.4,83
西鉄イン新宿,35.6943063,139.6943681,4.2,2719
アパホテル〈新宿御苑前〉,35.6888879,139.7088748,4.3,53
日本青年館ホテル,35.674282,139.71565,4.8,415
豪華カプセルホテル　安心お宿プレミア新宿駅前店,35.6892851,139.7028627,4.4,880
新宿ワシントンホテル（本館）,35.6869153,139.6932758,3.7,7049
ホテルルートイン東京阿佐ヶ谷,35.6999826,139.633413,4.2,1991
ホテルアークタワー高円寺,35.7056754,139.650707,4.6,554
新宿プリンスホテル,35.6945414,139.700179,4.5,2306
JR東日本ホテルメッツ 高円寺,35.7055236,139.650093,4.4,1111
小田急ホテルセンチュリーサザンタワー,35.6863845,139.7004339,4.4,2131
アパホテル〈東新宿 歌舞伎町タワー〉,35.6979004,139.7038019,4.2,78
吉祥寺東急REIホテル,35.7017376,139.5803699,4.3,1401
安心お宿 Tokyo Woman 新宿荻窪,35.6992855,139.6222585,4.3,504
新宿ワシントンホテル ANNEX（別館）,35.6863463,139.69271,4.2,1822
ベッセルイン高田馬場駅前,35.7134291,139.7053999,4.5,71
ONSEN RYOKAN YUEN SHINJUKU(温泉旅館　由縁　新宿),35.6930649,139.711135,4.5,416
スマイルホテル東京阿佐ヶ谷,35.7046347,139.6348683,4.1,829
JR東日本ホテルメッツ 武蔵境,35.7019059,139.5450922,4.4,985
京王プレッソイン新宿,35.6857771,139.6924877,4.0,2284
ガロアホテル新大久保,35.702516,139.700062,4.6,150
相鉄グランドフレッサ　高田馬場,35.7125479,139.7049787,4.7,107
ハイアット リージェンシー 東京,35.6912457,139.69126,4.6,831
三井ガーデンホテル神宮外苑の杜プレミア,35.6799475,139.7155115,4.5,534
リーガロイヤルホテル東京,35.7103643,139.7224664,4.4,1333
プレミアホテル-CABIN-新宿,35.697258,139.70204,4.5,2713
ホテル　ブーゲンビリア曙橋,35.6926464,139.724913,4.2,69
アパホテル〈東新宿駅前〉,35.698308,139.7072797,4.3,507
アパホテル〈新宿 歌舞伎町タワー〉,35.6959008,139.7012316,4.0,62
ビジネスホテル　新宿タウンホテル,35.6958618,139.697525,3.9,1023
ホテル　リステル新宿,35.6928597,139.7114398,3.6,2738
かどやホテル,35.68981,139.69619,4.2,1105
ホテル　ブーゲンビリア新宿(旧　ラガール・ドゥ・ラヴィー新宿),35.6730574,139.6634164,4.2,1403
ビジネスホテル クレセント,35.7003322,139.662131,4.3,552
アパホテル〈新宿 歌舞伎町中央〉,35.6955582,139.702846,4.5,18
ホテルローズガーデン新宿,35.6944516,139.6937059,4.3,19
ダイワロイネットホテル西新宿 PREMIER,35.6943105,139.6893742,4.5,614
新宿サンパークホテル,35.7045466,139.6975986,3.8,874
ホテルサンライト新宿,35.6941667,139.7072222,3.8,1488
アパホテル〈東新宿 歌舞伎町東〉,35.6980015,139.7052076,4.4,155
パールホテル新宿曙橋,35.6941884,139.7208783,4.2,24
新宿グランベルホテル,35.6964448,139.7057244,3.8,728
アパホテル〈東新宿 歌舞伎町〉,35.6979653,139.704715,4.2,434
吉祥寺エクセルホテル東急,35.7061516,139.5785561,4.2,115
新宿ノースホテル,35.699742,139.69999,4.2,64
ＪＲ西日本グループ　ヴィアイン新宿,35.6934006,139.7073918,4.3,2703
景雲荘,35.6872566,139.6983893,4.4,340
全理連 代々木の宿（旧　全理連宿泊部）,35.6838728,139.7012289,4.5,803
HOTEL　１９８７  新宿新大久保,35.703991,139.7051782,4.4,33
東横ＩＮＮ新宿歌舞伎町,35.697385,139.7042551,3.8,317
Ｓｔａｙ　ＳＡＫＵＲＡ　Ｔｏｋｙｏ（ステイサクラ）新宿　百蔵,35.7028846,139.6961199,4.3,45
ナインアワーズウーマン新宿,35.6903539,139.7082415,4.3,35
新宿アーバンホテル,35.6950309,139.7060865,4.0,1773
荻窪とんぼホテル,35.6992855,139.6222585,4.2,12
シティテル武蔵境,35.701596,139.542802,4.3,127
ビジネスホテル　新宿タウンアネクス,35.6952815,139.697556,3.9,444
ホテルグレイスリー新宿,35.6953583,139.7020345,3.6,751
ホテルリブマックス新宿歌舞伎町明治通,35.6969053,139.7069551,4.0,260
東横ＩＮＮ新宿御苑前駅３番出口,35.6894735,139.7112454,4.4,9
グランディオーソ中野富士見町,35.6885804,139.6686727,4.4,25
新宿ホテルパークイン,35.6905358,139.710185,3.2,1845
ホテルシェーナ,35.6959436,139.7043392,3.9,334
ホテルマイステイズ西新宿,35.6949249,139.6973203,3.6,9
ｐｏｄ　ｓｅｌｅｃｔ　ＨＯＴＥＬ　新宿,35.6907125,139.7078042,3.8,11
ａｌｍｏｎｄ　ｈｏｓｔｅｌ　＆　ｃａｆｅ,35.6700127,139.687538,3.8,103
ＨＯＴＥＬ　ＫＯＹＡＭＡ　新宿,35.7024808,139.6970729,4.0,13
三鷹シティホテル,35.6993083,139.5622167,3.3,34
シティホテル甲隆閣,35.701939,139.6969053,3.7,1021
相鉄フレッサイン東新宿駅前,35.6985755,139.7079019,3.3,2888
The GLOBAL HOTEL TOKYO,35.6993449,139.7007717,3.7,14
ザ ノット 東京新宿(THE KNOT TOKYO Shinjuku),35.6885337,139.6884765,3.6,5
ロイヤルホテル新大久保,35.7020056,139.6985247,3.5,166
エースイン新宿,35.6925119,139.7243036,3.3,247
西新宿グリーンホテル,35.6770361,139.6752397,3.3,183
新宿イーストホテル,35.6963141,139.7063474,3.4,185
イリキャビン新宿歌舞伎町,35.6960834,139.7026251,2.9,63
ホテルたてしな,35.692288,139.709014,2.8,522
新宿区役所前カプセルホテル,35.6937411,139.7040213,2.4,8
ビジネスホテル国際ホテル歌舞伎町,35.6960834,139.7026251,2.8,100
ホテルリブマックス高田馬場駅前,35.7130432,139.7014184,2.0,254
ホテルマイステイズ五反田駅前,35.626437,139.722806,3.9,127
京王プレッソイン五反田,35.6264694,139.7207975,4.2,2086
ＪＲ東日本ホテルメッツ プレミア 五反田,35.625998,139.7240422,4.7,68
ドーミーインＰＲＥＭＩＵＭ渋谷神宮前,35.6657834,139.7022319,4.4,42
OMO5東京五反田 by 星野リゾート,35.6224876,139.7215785,4.6,140
JR東日本ホテルメッツ 渋谷,35.6557605,139.7038518,4.3,1974
アパホテル〈渋谷道玄坂上〉,35.6562119,139.6951359,4.1,561
東急ステイ用賀,35.6264266,139.6336132,4.5,540
ネストホテルオルト目黒駅前,35.6341748,139.7134158,4.1,686
三井ガーデンホテル五反田,35.6252932,139.7254354,4.2,704
ホテルピュリッツァー自由が丘,35.6080271,139.6672405,4.5,17
ザ・ワンファイブ東京渋谷,35.6642795,139.700112,4.3,137
ホテルロイヤルオ－ク五反田,35.6248177,139.7242301,3.5,126
ウェスティンホテル東京,35.6415837,139.7154177,4.2,820
二子玉川エクセルホテル東急,35.6105515,139.6300671,4.2,265
旅館　山水荘,35.6245941,139.7264537,4.9,125
渋谷東武ホテル,35.6629443,139.6989747,4.0,748
サクラ・フルール青山,35.6595165,139.7058144,4.0,2804
the b 三軒茶屋（ザビーさんげんぢゃや）,35.6423777,139.6702046,3.6,1141
ホテルマイステイズ五反田,35.6252984,139.7284088,3.7,36
ＫＫＲホテル中目黒（国家公務員共済組合連合会目黒宿泊所）,35.6445652,139.691854,4.0,34
ホテルアベスト目黒,35.6342508,139.7146971,3.7,595
ドーミーインEXPRESS目黒青葉台,35.649233,139.692163,4.0,217
渋谷東急REIホテル,35.6602231,139.7019877,3.9,841
東急ステイ目黒・祐天寺,35.6360615,139.6907146,4.2,346
オリンピックイン渋谷,35.6518667,139.6864092,3.8,1180
渋谷エクセルホテル東急,35.6585773,139.6998213,4.0,879
やどかん,35.6574055,139.6597677,4.4,16
東急ステイ五反田,35.6270734,139.7250084,4.5,1469
ドシー五反田,35.6262614,139.7257992,3.8,120
ビジネスホテル経堂,35.6484554,139.6360239,4.2,6
ホテルサーブ渋谷,35.651056,139.6847754,3.6,20
Tabist ホテルニューワシントン 渋谷,35.6649262,139.6941237,3.8,164
東急ステイ渋谷　新南口,35.6548299,139.7051981,3.8,1351
日の出ホテル,35.6273673,139.7256112,3.5,65
サウナ＆カプセルミナミ　学芸大店,35.6300372,139.6858818,3.8,32
目黒ホリックホテル,35.6348817,139.7139559,3.5,155
ホテルレジデンス 大橋会館 by Re-rent Residence,35.6497006,139.6877522,3.6,36
ドシー恵比寿,35.6479425,139.7101294,3.0,242
ホテル恵比寿,35.6461371,139.7153917,3.2,9
アワーズイン阪急,35.6055857,139.7342741,4.3,259
京急ＥＸイン　羽田イノベーションシティ,35.5480088,139.7555838,4.4,801
アパホテル〈大森駅前〉,35.5894103,139.7296136,4.5,549
ＪＲ東日本ホテルメッツ　大森,35.5885212,139.728228,4.5,226
アパホテル〈京急蒲田駅前〉,35.5625596,139.7229745,4.5,68
ホテルルートイン東京蒲田－あやめ橋－,35.5624815,139.7215853,4.5,529
羽田エクセルホテル東急,35.5533558,139.7867528,4.3,4089
京急ＥＸイン京急蒲田駅前,35.5586378,139.7221108,4.3,70
ホテルメトロポリタン羽田,35.5492475,139.7546477,4.6,129
ヴィラフォンテーヌ グランド 羽田空港｜住友不動産,35.5437002,139.765892,4.3,617
京急ＥＸイン羽田[天空橋駅前Ａ２出口徒歩３分],35.548032,139.754661,4.3,1108
高濃度炭酸泉 梅屋敷の湯 スーパーホテル東京・JR蒲田西口,35.5668067,139.728246,4.3,1897
ホテルJALシティ羽田 東京,35.5517032,139.748092,4.4,3501
アパホテル〈蒲田駅前〉,35.5624792,139.7130377,4.4,174
ヴィラフォンテーヌ プレミア  羽田空港｜住友不動産,35.543738,139.7659386,4.9,17
トーセイホテルココネ蒲田(2025年12月23日オープン),35.561651,139.721174,4.4,97
ＪＲ西日本グループ　ヴィアイン品川大井町,35.6043466,139.7341192,4.2,2622
ホテルマイステイズ羽田,35.55078,139.74907,4.2,79
メルキュール東京羽田エアポート,35.5517947,139.7432961,4.6,20
Ｓｍａｒｔ　Ｓｔａｙ　ＳＨＩＺＵＫＵ　品川大井町,35.6078026,139.7358751,4.2,693
アパホテル〈羽田　穴守稲荷駅前〉,35.549248,139.7470271,4.2,255
ザ ロイヤルパークホテル 東京羽田,35.546591,139.7680734,4.1,1175
アパホテル〈大森駅前東〉,35.5864321,139.7300032,4.3,43
アーバイン東京・羽田 蒲田,35.563612,139.712921,4.2,1601
アパホテル〈京急蒲田駅前西〉,35.5607964,139.721947,4.1,79
東急ステイ蒲田,35.5607688,139.7215589,4.3,1140
ホテルＪＡＬシティ羽田　東京　ウエストウイング,35.5517803,139.7470335,4.3,253
変なホテル東京　羽田,35.5544291,139.741242,4.1,972
蒲田イン ソーシャル,35.5637517,139.7187588,4.1,149
ミヤビイン蒲田,35.563509,139.719231,4.3,1872
クインテッサホテル東京羽田 Comic&Books,35.5572693,139.7252096,4.2,64
イージーステイ蒲田,35.5628496,139.7148249,4.2,249
ホテルアマネク蒲田駅前,35.5637084,139.7157831,4.2,71
アパホテル〈品川 戸越駅前〉,35.6152785,139.7172072,4.3,88
ホテル オリエンタル エクスプレス 東京蒲田,35.5596812,139.7248408,4.1,645
ビジネスイン和,35.5630912,139.7176556,4.2,686
東横ＩＮＮ羽田空港Ⅱ,35.5520913,139.741572,4.2,1712
ワイヤーズホテル品川シーサイド,35.6066922,139.7472468,4.5,140
羽田イン,35.5522689,139.7437591,4.0,1625
ＳＰＡ＆ＨＯＴＥＬ　和,35.5637941,139.7156378,4.3,1155
hotel MONday 羽田空港,35.5518961,139.7394613,4.3,416
シティホテル弘城,35.5633271,139.7155532,4.0,3709
ホテルマイステイズプレミア大森,35.5904367,139.7324398,4.2,25
グランパークホテル　パネックス東京,35.5633984,139.7177834,3.9,466
アイホテル京急蒲田,35.5629778,139.7240046,4.2,242
Ｔマークシティホテル東京大森,35.5871474,139.7361553,4.1,248
アーヴェストホテル蒲田,35.5635734,139.7168045,4.1,52
東横ＩＮＮ羽田空港Ⅰ,35.5519952,139.7421083,4.3,684
ワシントンR&Bホテル蒲田東口,35.5626732,139.7189952,3.9,946
フレックステイイン中延,35.6020255,139.7138572,4.2,6
ゲストハウス扇子,35.553499,139.7405231,4.6,48
ホテルトムス,35.5637914,139.7102391,4.0,698
アパホテル〈蒲田駅東〉,35.5609584,139.7194524,3.9,28
ホテルマイステイズ蒲田,35.5600069,139.7159891,4.0,1676
ファーストキャビン羽田ターミナル１,35.54881,139.7838385,3.8,1140
Minn羽田エアポート,35.5479438,139.748553,4.4,5
京急ＥＸイン 蒲田,35.5620722,139.7199694,3.9,1744
ホテルバー　グランティオス　別邸,35.5890658,139.7294521,4.3,145
チサンイン京急蒲田,35.560541,139.721506,3.9,35
東横ＩＮＮ　大森,35.5852205,139.7308231,4.2,25
大森パークホテル,35.591142,139.730301,3.8,73
東京イン,35.5972505,139.711821,3.9,11
ホテルリブマックス蒲田駅前,35.5609642,139.7214177,4.0,105
ビジネスホテル　オーク・イン3蒲田（東口）,35.5637759,139.7186437,4.2,708
東横ＩＮＮ品川旗の台駅南口,35.6044626,139.7028056,4.2,86
チサンホテル蒲田,35.560541,139.721506,3.7,56
ビーグル東京ホステルアンドアパートメンツ,35.5504924,139.7410778,3.9,318
plat hostel keikyu haneda home,35.5478951,139.7487515,4.0,132
東横ＩＮＮ蒲田１,35.560955,139.711386,4.0,178
東横ＩＮＮ品川大井町,35.6062535,139.7315351,4.0,156
東横ＩＮＮ品川青物横丁駅,35.6095121,139.7427348,3.9,14
ホテルアジール東京蒲田,35.5631581,139.7142034,3.7,84
ホテルエミシア東京立川,35.6998219,139.4156076,4.3,201
ホテルリソル町田,35.5444604,139.4424499,4.4,1985
JR東日本ホテルメッツ 立川,35.6973658,139.4133223,4.5,1266
立川ワシントンホテル,35.6964682,139.4119428,4.4,1987
炭酸泉 うたたねの湯 スーパーホテル東京・JR立川北口,35.6994709,139.4174407,4.1,1901
ホテル ケヤキゲート 東京府中,35.6730556,139.4797069,4.4,457
京王プラザホテル八王子,35.6564428,139.3407102,4.2,72
ホテル町田ヴィラ,35.5456176,139.4440996,4.2,116
ワシントンＲ＆Ｂホテル八王子,35.6582644,139.3438732,4.1,1590
東京・湯河原温泉　万葉の湯,35.507445,139.47728,4.3,1004
ＬＩＮＫ　ＦＯＲＥＳＴ,35.6199856,139.4207419,4.6,56
ｔｈｅ　ｂ　八王子（ザビー　はちおうじ）,35.6584657,139.34332,4.0,3264
立川リージェントホテル,35.700052,139.415057,4.1,1180
ラクシオ・イン,35.6104202,139.3448792,4.1,2128
サンホテル八王子,35.6522719,139.3381857,4.1,1157
東横ＩＮＮ京王線東府中駅北口,35.6698206,139.4936346,4.3,56
ホテルマイステイズ立川,35.695207,139.418806,4.1,2807
ホテルノービス調布,35.6512831,139.5445958,4.5,487
ホテル日航立川 東京,35.69659,139.4193603,4.4,449
東横ＩＮＮ南町田,35.5134734,139.4699984,4.3,54
レンブラントホテル東京町田,35.5403579,139.4503334,4.3,2302
ホテルコンチネンタル府中,35.672404,139.4817338,4.0,1293
シティホテル高幡,35.660111,139.4133227,4.3,478
ＳＡＹＡＭＡ　ＢＡＳＥ,35.7606828,139.4129492,4.8,112
東横ＩＮＮ東京八王子駅北口,35.656903,139.3367681,4.1,190
ホテル　セントピア,35.7478722,139.4736656,4.4,504
立川アーバンホテルアネックス（別館）,35.6971795,139.4166534,4.2,952
"Wild Cherry Blossom-HOSTEL,TOKYO KOGANEI-",35.6980848,139.5076789,4.7,40
東横ＩＮＮ町田駅小田急線東口,35.5467786,139.4448801,4.0,556
アパホテル＜八王子駅西＞,35.6566654,139.3304026,3.9,239
立川ホテル,35.6991126,139.4082278,4.2,453
八王子アーバンホテル,35.6664381,139.3160068,3.9,1183
東横ＩＮＮ西武池袋線東久留米駅西口,35.7592964,139.5336079,4.1,22
東横ＩＮＮ昭島駅南口,35.713386,139.357801,4.2,33
ＨＯＴＥＬ松本屋１７２５,35.670239,139.4785931,4.2,408
東横ＩＮＮ福生駅前東口,35.7420208,139.3283355,4.0,373
ホテルリブマックスBUDGET調布駅前,35.650993,139.544563,4.1,232
ビジネスインサンホテル,35.5426468,139.4486883,3.9,60
タカオネ,35.6321158,139.2707621,4.6,99
東横ＩＮＮ調布京王線布田駅,35.6528698,139.5513448,4.4,16
アーバンホテル東京　府中西口（旧・府中アーバンホテル別館）,35.672106,139.478248,4.1,544
ホテルブーゲンビリア日野,35.6796239,139.3950495,4.1,76
アパホテル＜八王子駅北＞,35.6569505,139.3337998,3.5,241
ホテルリブマックス八王子駅前,35.65379,139.341842,3.7,367
立川アーバンホテル,35.69718,139.416304,3.8,1657
町田ビジネスホテル新宿屋,35.5444362,139.4465964,4.0,719
調布クレストンホテル（HMIホテルグループ）,35.652696,139.5436822,3.9,433
三恵シティホテル八王子,35.6569216,139.3345542,3.6,782
ビジネス・イン・グランドール府中,35.6778268,139.5172101,4.0,5
マロウドイン八王子,35.6567039,139.3358612,3.8,933
八王子スカイホテル,35.659775,139.332275,3.8,722
サウナ＆カプセルミナミ　立川店,35.6965064,139.4148591,4.0,32
ホテル武蔵野の森（調布・府中）,35.6645774,139.521497,3.8,947
ホテルリブマックス立川駅前,35.6975914,139.4169951,3.8,114
アーバンホテル　ツインズ調布,35.652233,139.546056,3.7,205
久米川ウイングホテル,35.7492745,139.4769089,4.0,337
ビジネスイン拝島,35.720769,139.3412128,4.0,8
商人ゆうだち,35.702402,139.419601,4.3,110
ホテルリブマックス町田駅前,35.544953,139.4428503,4.0,134
ビジネスホテル　シティテル府中,35.6720066,139.4821938,4.1,156
酒坊　多満自慢,35.7184677,139.3317124,4.4,39
調布アーバンホテル,35.6642677,139.522054,3.7,747
東横ＩＮＮ立川駅北口,35.6988572,139.409382,3.8,302
東横ＩＮＮ府中南武線南多摩駅前,35.6494506,139.4888242,3.8,32
ビジネスホテル　オーク昭島,35.7125856,139.3581148,4.0,23
ビジネスホテル　マーキュリー（ロイヤルイングループ）,35.7485824,139.4732063,3.7,60
ホテルリブマックスBUDGET北府中,35.6877656,139.4706688,3.9,116
ビジネスホテル一茶別館,35.7245399,139.4801275,3.8,25
マロウドイン東京,35.6693373,139.4956112,3.3,929
ＨＯＴＥＬ　プレジール立川,35.7022132,139.4160852,3.4,99
アパホテル＜町田駅東＞,35.5421116,139.4505427,3.4,20
ホテルリブマックスBUDGET府中アネックス,35.6735503,139.4749239,3.0,455
府中アーバンホテル,35.6727283,139.4825966,3.5,741
ビジネスホテルサンライト本館,35.6732321,139.4757745,3.3,240
プラザイン羽村,35.7591319,139.3166747,4.2,394
東京 奥多摩温泉　おくたま路(26年7月改装オープン),35.8095021,139.0960592,4.5,466
奥多摩の風　はとのす荘,35.813336,139.126808,4.6,484
秋川渓谷　瀬音の湯,35.7271498,139.1878599,4.5,433
奥多摩 清流リゾート 亀の井ホテル 青梅(25年4月リニューアル),35.7838884,139.255809,4.3,648
コンフェスタイン,35.7857333,139.2835638,4.2,20
憩山荘,35.785478,139.151378,4.9,315
やすら樹の宿　ねねんぼう,35.8417715,139.0405035,4.8,18
町久保田,35.7837745,139.1520789,4.6,116
東横ＩＮＮ東京秋川駅北口,35.7283371,139.2875353,3.9,228
宿坊神乃家　山楽荘,35.783703,139.1542444,4.4,83
ホテルリブマックスBUDGET東京羽村駅前,35.760171,139.315399,3.3,292
玉翠荘,35.8079408,139.098274,4.2,33
ホテルサーティマイルズ,35.777401,139.301555,2.9,47
八丈ビューホテル,33.1153374,139.7684974,4.6,125
ロッジ　オーシャン,33.1255565,139.8133198,4.6,138
リードパークリゾート八丈島,33.1433034,139.7876361,4.3,209
リゾート・シーピロス,33.1232846,139.815178,4.4,19
Ｋｅｎｃｈａ　Ｒｕｍａｈ,33.1062935,139.7882153,4.4,91
ペンション大吉丸,33.1078044,139.7826446,4.9,10
伊豆大島　ホテル赤門　為朝の館,34.7524263,139.3534717,4.0,109
山下旅館　別館,34.2115725,139.1327853,4.3,12
BookTeaBed伊豆大島,34.749722,139.3542944,4.0,62
SANDBOX,34.74877196,139.3552932,4.0,14
大島温泉ホテル,34.7533358,139.4016022,3.9,41
八丈島プチホテル　満天望,33.09300273,139.781542,4.2,15
天然温泉の宿　ホテル白岩,34.75005045,139.3584661,3.3,296
